{
  "type": "FeatureCollection",
  "features": [
      { "type": "Feature", "properties": { "SmID": "1", "SmX": "1.2296152115263747E7", "SmY": "2265690.969792616", "SmLibTileID": "1", "SmUserID": "0", "SmGeometrySize": "20", "SmGeoPosition": "12156928", "GB": "480100.0", "RN": "", "NAME": "海口美兰国际机场", "PERIOD": "", "BRGLEV": "0.0", "ANGLE": "0.0", "ID": 1 }, "geometry": { "type": "Point", "coordinates": [ 110.45821381000007, 19.938028284402066 ] }, "id": 1 },
      { "type": "Feature", "properties": { "SmID": "2", "SmX": "1.261227373538996E7", "SmY": "2679000.70399857", "SmLibTileID": "1", "SmUserID": "0", "SmGeometrySize": "20", "SmGeoPosition": "12156948", "GB": "480100.0", "RN": "", "NAME": "广州白云国际机场", "PERIOD": "", "BRGLEV": "0.0", "ANGLE": "0.0", "ID": 2 }, "geometry": { "type": "Point", "coordinates": [ 113.29798264000011, 23.387934879321993 ] }, "id": 2 },
      { "type": "Feature", "properties": { "SmID": "3", "SmX": "1.2669685574431028E7", "SmY": "2588940.5222278074", "SmLibTileID": "1", "SmUserID": "0", "SmGeometrySize": "20", "SmGeoPosition": "12156968", "GB": "480100.0", "RN": "", "NAME": "深圳宝安国际机场", "PERIOD": "", "BRGLEV": "0.0", "ANGLE": "0.0", "ID": 3 }, "geometry": { "type": "Point", "coordinates": [ 113.81372196500011, 22.643317384338435 ] }, "id": 3 },
      { "type": "Feature", "properties": { "SmID": "4", "SmX": "1.268189953281954E7", "SmY": "2549435.726518385", "SmLibTileID": "1", "SmUserID": "0", "SmGeometrySize": "20", "SmGeoPosition": "12156988", "GB": "480100.0", "RN": "", "NAME": "香港国际机场", "PERIOD": "", "BRGLEV": "0.0", "ANGLE": "0.0", "ID": 4 }, "geometry": { "type": "Point", "coordinates": [ 113.92344182000011, 22.3154049193459 ] }, "id": 4 },
      { "type": "Feature", "properties": { "SmID": "5", "SmX": "1.2644778735601122E7", "SmY": "2529918.778260157", "SmLibTileID": "1", "SmUserID": "0", "SmGeometrySize": "20", "SmGeoPosition": "12157008", "GB": "480100.0", "RN": "", "NAME": "澳门国际机场", "PERIOD": "", "BRGLEV": "0.0", "ANGLE": "0.0", "ID": 5 }, "geometry": { "type": "Point", "coordinates": [ 113.58998002500005, 22.153117549349545 ] }, "id": 5 },
      { "type": "Feature", "properties": { "SmID": "6", "SmX": "1.3397109418878341E7", "SmY": "2580841.8466870063", "SmLibTileID": "1", "SmUserID": "0", "SmGeometrySize": "20", "SmGeoPosition": "12157028", "GB": "480100.0", "RN": "", "NAME": "高雄国际机场", "PERIOD": "", "BRGLEV": "0.0", "ANGLE": "0.0", "ID": 6 }, "geometry": { "type": "Point", "coordinates": [ 120.34828154000013, 22.576157084339993 ] }, "id": 6 },
      { "type": "Feature", "properties": { "SmID": "7", "SmX": "1.338160242067152E7", "SmY": "2625928.3318391354", "SmLibTileID": "1", "SmUserID": "0", "SmGeometrySize": "20", "SmGeoPosition": "12157048", "GB": "480100.0", "RN": "", "NAME": "台南机场", "PERIOD": "", "BRGLEV": "0.0", "ANGLE": "0.0", "ID": 7 }, "geometry": { "type": "Point", "coordinates": [ 120.20897980500013, 22.949629654331627 ] }, "id": 7 },
      { "type": "Feature", "properties": { "SmID": "8", "SmX": "1.1459148861181345E7", "SmY": "2889273.7269957396", "SmLibTileID": "1", "SmUserID": "0", "SmGeometrySize": "20", "SmGeoPosition": "12157068", "GB": "480100.0", "RN": "", "NAME": "昆明长水国际机场", "PERIOD": "", "BRGLEV": "0.0", "ANGLE": "0.0", "ID": 8 }, "geometry": { "type": "Point", "coordinates": [ 102.9392856500001, 25.110097784285568 ] }, "id": 8 },
      { "type": "Feature", "properties": { "SmID": "9", "SmX": "1.1889311527153065E7", "SmY": "3066615.0618478935", "SmLibTileID": "1", "SmUserID": "0", "SmGeometrySize": "20", "SmGeoPosition": "12157088", "GB": "480100.0", "RN": "", "NAME": "贵阳龙洞堡国际机场", "PERIOD": "", "BRGLEV": "0.0", "ANGLE": "0.0", "ID": 9 }, "geometry": { "type": "Point", "coordinates": [ 106.80350262500008, 26.54399905925703 ] }, "id": 9 },
      { "type": "Feature", "properties": { "SmID": "10", "SmX": "1.1571483182197494E7", "SmY": "3577803.835164837", "SmLibTileID": "1", "SmUserID": "0", "SmGeometrySize": "20", "SmGeoPosition": "12157108", "GB": "480100.0", "RN": "", "NAME": "成都双流国际机场", "PERIOD": "", "BRGLEV": "0.0", "ANGLE": "0.0", "ID": 10 }, "geometry": { "type": "Point", "coordinates": [ 103.94840202500006, 30.57598145918672 ] }, "id": 10 },
      { "type": "Feature", "properties": { "SmID": "11", "SmX": "1.1871087678812282E7", "SmY": "3468230.4592424165", "SmLibTileID": "1", "SmUserID": "0", "SmGeometrySize": "20", "SmGeoPosition": "12157128", "GB": "480100.0", "RN": "", "NAME": "重庆江北国际机场", "PERIOD": "", "BRGLEV": "0.0", "ANGLE": "0.0", "ID": 11 }, "geometry": { "type": "Point", "coordinates": [ 106.63979501000006, 29.724848269200308 ] }, "id": 11 },
      { "type": "Feature", "properties": { "SmID": "12", "SmX": "1.2603317448947737E7", "SmY": "3273786.6760220425", "SmLibTileID": "1", "SmUserID": "0", "SmGeometrySize": "20", "SmGeoPosition": "12157148", "GB": "480100.0", "RN": "", "NAME": "长沙黄花国际机场", "PERIOD": "", "BRGLEV": "0.0", "ANGLE": "0.0", "ID": 12 }, "geometry": { "type": "Point", "coordinates": [ 113.21752695000009, 28.196627209226502 ] }, "id": 12 },
      { "type": "Feature", "properties": { "SmID": "13", "SmX": "1.3021403647234032E7", "SmY": "3762584.654015376", "SmLibTileID": "1", "SmUserID": "0", "SmGeometrySize": "20", "SmGeoPosition": "12157168", "GB": "480100.0", "RN": "", "NAME": "合肥新桥国际机场", "PERIOD": "", "BRGLEV": "0.0", "ANGLE": "0.0", "ID": 13 }, "geometry": { "type": "Point", "coordinates": [ 116.97325917000012, 31.99446926416553 ] }, "id": 13 },
      { "type": "Feature", "properties": { "SmID": "14", "SmX": "1.2891107815058885E7", "SmY": "3436644.465609994", "SmLibTileID": "1", "SmUserID": "0", "SmGeometrySize": "20", "SmGeoPosition": "12157188", "GB": "480100.0", "RN": "", "NAME": "九江庐山机场", "PERIOD": "", "BRGLEV": "0.0", "ANGLE": "0.0", "ID": 14 }, "geometry": { "type": "Point", "coordinates": [ 115.80279179500006, 29.478140174204473 ] }, "id": 14 },
      { "type": "Feature", "properties": { "SmID": "15", "SmX": "1.3232583768349232E7", "SmY": "3729037.7916540215", "SmLibTileID": "1", "SmUserID": "0", "SmGeometrySize": "20", "SmGeoPosition": "12157208", "GB": "480100.0", "RN": "", "NAME": "南京禄口国际机场", "PERIOD": "", "BRGLEV": "0.0", "ANGLE": "0.0", "ID": 15 }, "geometry": { "type": "Point", "coordinates": [ 118.87032247500008, 31.73853336416917 ] }, "id": 15 },
      { "type": "Feature", "properties": { "SmID": "16", "SmX": "1.2905428037844159E7", "SmY": "3329385.9820925267", "SmLibTileID": "1", "SmUserID": "0", "SmGeometrySize": "20", "SmGeoPosition": "12157228", "GB": "480100.0", "RN": "", "NAME": "南昌青云谱机场", "PERIOD": "", "BRGLEV": "0.0", "ANGLE": "0.0", "ID": 16 }, "geometry": { "type": "Point", "coordinates": [ 115.93143254500013, 28.635904739218805 ] }, "id": 16 },
      { "type": "Feature", "properties": { "SmID": "17", "SmX": "1.2902174125713661E7", "SmY": "3357412.8091316265", "SmLibTileID": "1", "SmUserID": "0", "SmGeometrySize": "20", "SmGeoPosition": "12157248", "GB": "480100.0", "RN": "", "NAME": "南昌昌北国际机场", "PERIOD": "", "BRGLEV": "0.0", "ANGLE": "0.0", "ID": 17 }, "geometry": { "type": "Point", "coordinates": [ 115.90220215500005, 28.856645249214907 ] }, "id": 17 },
      { "type": "Feature", "properties": { "SmID": "18", "SmX": "1.2713847562099844E7", "SmY": "3604680.9867299926", "SmLibTileID": "1", "SmUserID": "0", "SmGeometrySize": "20", "SmGeoPosition": "12157268", "GB": "480100.0", "RN": "", "NAME": "武汉天河国际机场", "PERIOD": "", "BRGLEV": "0.0", "ANGLE": "0.0", "ID": 18 }, "geometry": { "type": "Point", "coordinates": [ 114.21043585000007, 30.783628774183537 ] }, "id": 18 },
      { "type": "Feature", "properties": { "SmID": "19", "SmX": "1.3405303001499176E7", "SmY": "3533164.6176407803", "SmLibTileID": "1", "SmUserID": "0", "SmGeometrySize": "20", "SmGeoPosition": "12157288", "GB": "480100.0", "RN": "", "NAME": "杭州萧山国际机场", "PERIOD": "", "BRGLEV": "0.0", "ANGLE": "0.0", "ID": 19 }, "geometry": { "type": "Point", "coordinates": [ 120.42188574500007, 30.23012438919222 ] }, "id": 19 },
      { "type": "Feature", "properties": { "SmID": "20", "SmX": "1.350736004218491E7", "SmY": "3658343.1612184932", "SmLibTileID": "1", "SmUserID": "0", "SmGeometrySize": "20", "SmGeoPosition": "12157308", "GB": "480100.0", "RN": "", "NAME": "上海虹桥国际机场", "PERIOD": "", "BRGLEV": "0.0", "ANGLE": "0.0", "ID": 20 }, "geometry": { "type": "Point", "coordinates": [ 121.33867974000009, 31.1968716991772 ] }, "id": 20 },
      { "type": "Feature", "properties": { "SmID": "21", "SmX": "1.3557858506145097E7", "SmY": "3652342.298339291", "SmLibTileID": "1", "SmUserID": "0", "SmGeometrySize": "20", "SmGeoPosition": "12157328", "GB": "480100.0", "RN": "", "NAME": "上海浦东国际机场", "PERIOD": "", "BRGLEV": "0.0", "ANGLE": "0.0", "ID": 21 }, "geometry": { "type": "Point", "coordinates": [ 121.79231516000004, 31.15074910417785 ] }, "id": 21 },
      { "type": "Feature", "properties": { "SmID": "22", "SmX": "1.2107052130544575E7", "SmY": "4088761.470150067", "SmLibTileID": "1", "SmUserID": "0", "SmGeometrySize": "20", "SmGeoPosition": "12157348", "GB": "480100.0", "RN": "", "NAME": "西安咸阳国际机场", "PERIOD": "", "BRGLEV": "0.0", "ANGLE": "0.0", "ID": 22 }, "geometry": { "type": "Point", "coordinates": [ 108.75949974500007, 34.445364104133326 ] }, "id": 22 },
      { "type": "Feature", "properties": { "SmID": "23", "SmX": "1.2672594404489014E7", "SmY": "4099413.6474706205", "SmLibTileID": "1", "SmUserID": "0", "SmGeometrySize": "20", "SmGeoPosition": "12157368", "GB": "480100.0", "RN": "", "NAME": "郑州新郑国际机场", "PERIOD": "", "BRGLEV": "0.0", "ANGLE": "0.0", "ID": 23 }, "geometry": { "type": "Point", "coordinates": [ 113.83985243000006, 34.52423921413241 ] }, "id": 23 },
      { "type": "Feature", "properties": { "SmID": "24", "SmX": "1.153472865059408E7", "SmY": "4370957.084564465", "SmLibTileID": "1", "SmUserID": "0", "SmGeometrySize": "20", "SmGeoPosition": "12157388", "GB": "480100.0", "RN": "", "NAME": "兰州中川机场", "PERIOD": "", "BRGLEV": "0.0", "ANGLE": "0.0", "ID": 24 }, "geometry": { "type": "Point", "coordinates": [ 103.61823045000006, 36.509506619110844 ] }, "id": 24 },
      { "type": "Feature", "properties": { "SmID": "25", "SmX": "1.2538620580234248E7", "SmY": "4543163.151810386", "SmLibTileID": "1", "SmUserID": "0", "SmGeometrySize": "20", "SmGeoPosition": "12157408", "GB": "480100.0", "RN": "", "NAME": "太原武宿国际机场", "PERIOD": "", "BRGLEV": "0.0", "ANGLE": "0.0", "ID": 25 }, "geometry": { "type": "Point", "coordinates": [ 112.63634509000008, 37.7428541890996 ] }, "id": 25 },
      { "type": "Feature", "properties": { "SmID": "26", "SmX": "1.306352040086033E7", "SmY": "4739405.678154814", "SmLibTileID": "1", "SmUserID": "0", "SmGeometrySize": "20", "SmGeoPosition": "12157428", "GB": "480100.0", "RN": "", "NAME": "天津滨海国际机场", "PERIOD": "", "BRGLEV": "0.0", "ANGLE": "0.0", "ID": 26 }, "geometry": { "type": "Point", "coordinates": [ 117.35160040500013, 39.123697359088744 ] }, "id": 26 },
      { "type": "Feature", "properties": { "SmID": "27", "SmX": "1.3097760457267858E7", "SmY": "4707249.17287098", "SmLibTileID": "1", "SmUserID": "0", "SmGeometrySize": "20", "SmGeoPosition": "12157448", "GB": "480100.0", "RN": "", "NAME": "天津塘沽机场", "PERIOD": "", "BRGLEV": "0.0", "ANGLE": "0.0", "ID": 27 }, "geometry": { "type": "Point", "coordinates": [ 117.65918406500009, 38.89924241909037 ] }, "id": 27 },
      { "type": "Feature", "properties": { "SmID": "28", "SmX": "1.3047350377643764E7", "SmY": "4417586.140443919", "SmLibTileID": "1", "SmUserID": "0", "SmGeometrySize": "20", "SmGeoPosition": "12157468", "GB": "480100.0", "RN": "", "NAME": "济南遥墙国际机场", "PERIOD": "", "BRGLEV": "0.0", "ANGLE": "0.0", "ID": 28 }, "geometry": { "type": "Point", "coordinates": [ 117.20634261500004, 36.8454485041076 ] }, "id": 28 },
      { "type": "Feature", "properties": { "SmID": "29", "SmX": "1.2767815217840582E7", "SmY": "4618972.080929952", "SmLibTileID": "1", "SmUserID": "0", "SmGeometrySize": "20", "SmGeoPosition": "12157488", "GB": "480100.0", "RN": "", "NAME": "石家庄正定国际机场", "PERIOD": "", "BRGLEV": "0.0", "ANGLE": "0.0", "ID": 29 }, "geometry": { "type": "Point", "coordinates": [ 114.69523555000012, 38.27940621909511 ] }, "id": 29 },
      { "type": "Feature", "properties": { "SmID": "30", "SmX": "9740859.266439656", "SmY": "5451457.58226248", "SmLibTileID": "1", "SmUserID": "0", "SmGeometrySize": "20", "SmGeoPosition": "12157508", "GB": "480100.0", "RN": "", "NAME": "乌鲁木齐地窝堡国际机场", "PERIOD": "", "BRGLEV": "0.0", "ANGLE": "0.0", "ID": 30 }, "geometry": { "type": "Point", "coordinates": [ 87.50362759500013, 43.9095635390674 ] }, "id": 30 },
      { "type": "Feature", "properties": { "SmID": "31", "SmX": "1.244776976934107E7", "SmY": "4991130.073350035", "SmLibTileID": "1", "SmUserID": "0", "SmGeometrySize": "20", "SmGeoPosition": "12157528", "GB": "480100.0", "RN": "", "NAME": "呼和浩特白塔国际机场", "PERIOD": "", "BRGLEV": "0.0", "ANGLE": "0.0", "ID": 31 }, "geometry": { "type": "Point", "coordinates": [ 111.82021837000013, 40.85603553907814 ] }, "id": 31 },
      { "type": "Feature", "properties": { "SmID": "32", "SmX": "1.2981688815892868E7", "SmY": "4876517.22067685", "SmLibTileID": "1", "SmUserID": "0", "SmGeometrySize": "20", "SmGeoPosition": "12157548", "GB": "480100.0", "RN": "", "NAME": "北京首都国际机场", "PERIOD": "", "BRGLEV": "0.0", "ANGLE": "0.0", "ID": 32 }, "geometry": { "type": "Point", "coordinates": [ 116.61649477000014, 40.072732614082504 ] }, "id": 32 },
      { "type": "Feature", "properties": { "SmID": "33", "SmX": "1.3992766325155364E7", "SmY": "5466026.816530507", "SmLibTileID": "1", "SmUserID": "0", "SmGeometrySize": "20", "SmGeoPosition": "12157568", "GB": "480100.0", "RN": "", "NAME": "长春龙嘉国际机场", "PERIOD": "", "BRGLEV": "0.0", "ANGLE": "0.0", "ID": 33 }, "geometry": { "type": "Point", "coordinates": [ 125.69915857000012, 44.003777744067186 ] }, "id": 33 },
      { "type": "Feature", "properties": { "SmID": "34", "SmX": "1.405489549905081E7", "SmY": "5721450.028799257", "SmLibTileID": "1", "SmUserID": "0", "SmGeometrySize": "20", "SmGeoPosition": "12157588", "GB": "480100.0", "RN": "", "NAME": "哈尔滨太平国际机场", "PERIOD": "", "BRGLEV": "0.0", "ANGLE": "0.0", "ID": 34 }, "geometry": { "type": "Point", "coordinates": [ 126.2572744350001, 45.631235029065905 ] }, "id": 34 },
      { "type": "Feature", "properties": { "SmID": "35", "SmX": "1.1844740809936292E7", "SmY": "4626687.587027538", "SmLibTileID": "1", "SmUserID": "0", "SmGeometrySize": "20", "SmGeoPosition": "12157608", "GB": "480100.0", "RN": "", "NAME": "银川河东机场", "PERIOD": "", "BRGLEV": "0.0", "ANGLE": "0.0", "ID": 35 }, "geometry": { "type": "Point", "coordinates": [ 106.40311706000011, 38.3337937790947 ] }, "id": 35 },
      { "type": "Feature", "properties": { "SmID": "36", "SmX": "1.1358898469596088E7", "SmY": "4373017.941686754", "SmLibTileID": "1", "SmUserID": "0", "SmGeometrySize": "20", "SmGeoPosition": "12157628", "GB": "480100.0", "RN": "", "NAME": "西宁曹家堡机场", "PERIOD": "", "BRGLEV": "0.0", "ANGLE": "0.0", "ID": 36 }, "geometry": { "type": "Point", "coordinates": [ 102.03872106000007, 36.524385159110714 ] }, "id": 36 },
      { "type": "Feature", "properties": { "SmID": "37", "SmX": "1.0120698591264725E7", "SmY": "3413399.9021715303", "SmLibTileID": "1", "SmUserID": "0", "SmGeometrySize": "20", "SmGeoPosition": "12157648", "GB": "480100.0", "RN": "", "NAME": "贡嘎机场", "PERIOD": "", "BRGLEV": "0.0", "ANGLE": "0.0", "ID": 37 }, "geometry": { "type": "Point", "coordinates": [ 90.9157823050001, 29.296199659207456 ] }, "id": 37 }
  ]
}